{
  "candidates": [
    {
      "id": 1,
      "name": "Romica",
      "location": "Bacau",
      "phone": "0785649210",
      "coursesCompleted": [
        "JavaScript",
        "Cypress"
      ]
    },
    {
      "id": 2,
      "name": "Andrei",
      "location": "Iasi",
      "phone": "0785875001",
      "coursesCompleted": [
        "C++",
        "Selenium"
      ]
    },
    {
      "id": 3,
      "name": "Ioana",
      "location": "Bucharest",
      "phone": "0787231444",
      "coursesCompleted": [
        "Phyton",
        "Selenium"
      ]
    },
    {
      "id": 4,
      "name": "Virgil",
      "location": "Galati",
      "phone": "0785649210",
      "coursesCompleted": [
        "Java",
        "Selenium"
      ]
    },
    {
      "id": 5,
      "name": "Andreea",
      "location": "Braila",
      "phone": "0785664232",
      "coursesCompleted": [
        "C#",
        "Apium"
      ]
    },
    {
      "id": 7,
      "name": "Vasile",
      "location": "Constanta",
      "phone": "0787332556",
      "coursesCompleted": [
        "Phyton",
        "C#"
      ]
    },
    {
      "name": "George",
      "location": "Calarasi",
      "phone": "0785444213",
      "coursesCompleted": [
        "Java",
        "Ruby"
      ],
      "id": 8
    },
    {
      "name": "George",
      "location": "Calarasi",
      "phone": "0785444213",
      "coursesCompleted": [
        "Java",
        "Ruby"
      ],
      "id": 9
    },
    {
      "name": "George",
      "location": "Calarasi",
      "phone": "0785444213",
      "coursesCompleted": [
        "Java",
        "Ruby"
      ],
      "id": 10
    },
    {
      "name": "George",
      "location": "Calarasi",
      "phone": "0785444213",
      "coursesCompleted": [
        "Java",
        "Ruby"
      ],
      "id": 11
    }
  ]
}